RESTAURANT_ID,NAME,ADDRESS,STATE,LAT,LONG,OPENING_DATE,DELIVERY_START
R11,Dupont Circle,"1362 New Hampshire Ave NW, Washington, DC 20036",DC,38.90918,-77.04406,8/9/2014,1/1/2017
R12,Downtown DC,"1799 M St NW, Washington, DC 20036",DC,38.90567,-77.0417,3/19/2013,5/1/2018
R13,Brentwood,"5004 MD-208, Hyattsville, MD 20781",MD,38.95048,-76.95608,5/21/2013,5/1/2018
R14,Crystal City,"101 12th St S, Arlington, VA 22202",VA,38.86264,-77.04907,11/14/2013,3/5/2016
R15,Arlington,"601 N Manchester St, Arlington, VA 22203",VA,38.869502,-77.132306,1/10/2014,1/1/2017
R16,Adams Morgan,"1865 Kalorama Rd NW, Washington, DC 20009",DC,38.9197508,-77.0445998,5/29/2014,8/2/2017
R17,Northwest DC,"5200 Glover Rd NW, Washington, DC 20008",DC,38.966816,-77.046265,2/2/2015,8/2/2017
R18,Silver Spring,"1030 Forest Glen Rd, Silver Spring, MD 20901",MD,39.015784,-77.035907,10/12/2015,1/1/2017
